[
  {
    "Category": "Cafe",
    "OFF": "",
    "City": "Helsinki",
    "Title": "Cafe Regatta",
    "Coordinates": "60.180171, 24.911874",
    "Address": "Merikannontie 10, 00260 Helsinki",
    "Discription": "Cozy little cabin. Great pies and you get paid to drink extra coffee.",
    "Radius": "400",
    "Time period": "10am to 11pm"
  },
  {
    "Category": "Food",
    "OFF": "",
    "City": "Helsinki",
    "Title": "Tuk Tuk",
    "Coordinates": "60.188450, 24.956318",
    "Address": "Vaasankatu 19, 00500 Helsinki",
    "Discription": "Thai food. Great value for your money. Probably best in town.",
    "Radius": "200",
    "Time period": "11am to 10pm"
  },
  {
    "Category": "Food",
    "OFF": "",
    "City": "Helsinki",
    "Title": "Mäkikupla",
    "Coordinates": "60.185991, 24.960561",
    "Address": "Torkkelinkatu 2, 00500 Helsinki",
    "Discription": "Cheap but good pizza. Always a great combo.",
    "Radius": "100",
    "Time period": "13pm to 2am"
  },
  {
    "Category": "Movies",
    "OFF": "",
    "City": "Helsinki",
    "Title": "Orion",
    "Coordinates": "60.166549, 24.933026",
    "Address": "Eerikinkatu 15, 00100 Helsinki",
    "Discription": "Old art deco theater wich now shows old classic movies.",
    "Radius": "100",
    "Time period": ""
  },
  {
    "Category": "Food",
    "OFF": "",
    "City": "Helsinki",
    "Title": "Alppitori",
    "Coordinates": "60.188852, 24.946745",
    "Address": "Kirstinkatu 15, 00510 Helsinki",
    "Discription": "Relaxing athmosphere and quality food. Try the best burgers in town.",
    "Radius": "100",
    "Time period": "11am to 21pm"
  },
  {
    "Category": "Food",
    "OFF": "",
    "City": "Helsinki",
    "Title": "Latva",
    "Coordinates": "60.163555, 24.946353",
    "Address": "Korkeavuorenkatu 25, 00130 Helsinki",
    "Discription": "Finnish food made with quality local incredients.",
    "Radius": "100",
    "Time period": "11am to 11pm"
  },
  {
    "Category": "Bar",
    "OFF": "",
    "City": "Helsinki",
    "Title": "Bar Bhangra",
    "Coordinates": "60.174578, 24.921960",
    "Address": "Runeberginkatu 28, 00100 Helsinki",
    "Discription": "Bar with random poems on drawers, swing and indian theme.",
    "Radius": "100",
    "Time period": "6pm to 2am"
  },
  {
    "Category": "Nature",
    "OFF": "",
    "City": "Helsinki",
    "Title": "Lammassaari",
    "Coordinates": "60.212341, 24.988661",
    "Address": "",
    "Discription": "Peacefull island to relax and watch some birdies.",
    "Radius": "700",
    "Time period": ""
  },
  {
    "Category": "Food",
    "OFF": "",
    "City": "Helsinki",
    "Title": "Skiffer, Liuskaluoto",
    "Coordinates": "60.152916, 24.946408",
    "Address": "Liuskaluoto, 00140 Helsinki",
    "Discription": "Delicius pizzas on an island. Take a boat to get there.",
    "Radius": "500",
    "Time period": "summer"
  },
  {
    "Category": "Bar",
    "OFF": "",
    "City": "Helsinki",
    "Title": "Pikku-Vallila",
    "Coordinates": "60.192112, 24.959156",
    "Address": "Vallilantie 19, 00510 Helsinki",
    "Discription": "Small pub hidden in an old wooden neighbourhood.",
    "Radius": "200",
    "Time period": "3pm to 1am"
  },
  {
    "Category": "Cafe",
    "OFF": "",
    "City": "Helsinki",
    "Title": "Sininen huvila",
    "Coordinates": "60.181327, 24.937048",
    "Address": "Linnunlauluntie 11, 00530 Helsinki",
    "Discription": "Cafe in and old blue villa.",
    "Radius": "300",
    "Time period": ""
  },
  {
    "Category": "Health",
    "OFF": "",
    "City": "Helsinki",
    "Title": "Harju's Sauna",
    "Coordinates": "60.186475, 24.957323",
    "Address": "Harjutorinkatu 1, 00500, Helsinki",
    "Discription": "Wooden heated sauna to let off some steam.",
    "Radius": "100",
    "Time period": "2pm to 8pm"
  },
  {
    "Category": "Shopping",
    "OFF": "",
    "City": "Helsinki",
    "Title": "Oiva Flea Market",
    "Coordinates": "60.181755, 24.951210",
    "Address": "Kolmas linja 7 00530 Helsinki",
    "Discription": "Flea market in a heart of the Kallio.",
    "Radius": "50",
    "Time period": "12pm to 4pm"
  },
  {
    "Category": "Shopping",
    "OFF": "",
    "City": "Helsinki",
    "Title": "Wanha Kaarle",
    "Coordinates": "60.186487, 24.951179",
    "Address": "Kaarlenkatu 12, 00510 Helsinki",
    "Discription": "Small boutique filled with colorful retro items.",
    "Radius": "100",
    "Time period": "12pm to 4pm"
  },
  {
    "Category": "Food",
    "OFF": "",
    "City": "Helsinki",
    "Title": "Döner Harju",
    "Coordinates": "60.188634, 24.953168",
    "Address": "Flemingsgatan 23, 00510 Helsinki,",
    "Discription": "Only real kebab place in Helsinki. Period.",
    "Radius": "100",
    "Time period": "11am to 21pm"
  },
  {
    "Category": "Food",
    "OFF": "",
    "City": "Helsinki",
    "Title": "Teurastamo",
    "Coordinates": "60.190359, 24.972256",
    "Address": "Työpajankatu 2, 00580 Helsinki",
    "Discription": "Old industrial area field with great food, ice cream, events and people",
    "Radius": "400",
    "Time period": "11am to 20pm"
  },
  {
    "Category": "Nature",
    "OFF": "",
    "City": "Helsinki",
    "Title": "Stairs between rocks",
    "Coordinates": "60.155736, 24.955168",
    "Address": "Kaivopuisto, 00140 Helsinki",
    "Discription": "Remains of the spa build in 1834. Hidden staircase between two rocks.",
    "Radius": "200",
    "Time period": ""
  }
]